- name: Home
  latitude: !secret latitude_home
  longitude: !secret longitude_home
  elevation: !secret elevation_home
  radius: 50
  icon: mdi:home

- name: Work
  latitude: !secret latitude_work
  longitude: !secret longitude_work
  elevation: !secret elevation_work
  radius: 100
  icon: mdi:briefcase

- name: ICA Maxi
  latitude: 62.44293
  longitude: 17.34796
  elevation: 16
  radius: 50

- name: IKEA
  latitude: 62.44549048
  longitude: 17.336061
  elevation: 20
  radius: 50

- name: Birsta City
  latitude: 62.44704885
  longitude: 17.33618975
  elevation: 22
  radius: 50

- name: City Gross
  latitude: 62.41381922
  longitude: 17.33951569
  elevation: 38
  radius: 50

- name: Systembolaget Birsta
  latitude: 62.44381292
  longitude: 17.33417273
  elevation: 29
  radius: 30

- name: Mor och far
  latitude: 63.6976303
  longitude: 16.87107325
  elevation: 206
  radius: 50

- name: Njoton
  latitude: 63.45150666
  longitude: 16.9092679
  elevation: 147
  radius: 50

- name: Brorsan
  latitude: 63.27099147
  longitude: 18.6789465
  elevation: 7
  radius: 50

